name,alias,addr,lat,lon,tel,link,menu,flag,media,url,type
"중경해선 훠궈",,"서울시 강동구 성내동 48-12",37.5368772,127.1262044,02-471-8989,"훠궈 (양고기, 돈목살, 소목심, 우삼겹, 해산물, 야채)","[평일점심] 22,800 [저녁및주말] 24,800 [혼밥] 26,000원|2024.04",,,,restaurant
"가인채",강동점,"서울시 강동구 양재대로 1571 (홈플러스 3층)",37.5456952,127.142258,02-474-6602,"소고기 샤브샤브 + 샐러드바","[평일] 20,800 [주말] 23,800원|2024.01",,,,restaurant
"채선당",둔촌점,"서울시 강동구 천호대로 1200",37.5344895,127.1446813,02-477-8594,"월남쌈 & 소고기 샤브샤브","29,900원|2024.03",,,,restaurant
"미스터피자",명일점,"서울시 강동구 명일동 324-2",37.5504333,127.1441250,02-481-0012,"피자, 샐러드바, 음료","12,900원|2024.04",,,,restaurant
"명륜진사갈비",강동역점,"서울시 강동구 성내동 383-18",37.5336347,127.1333522,02-484-1939,"숙성 숯불돼지갈비, 등갈비(프렌치렉/돈마호크), 통삼겹, 목살, 숯불닭갈비, 떡볶이, 튀김, 공기밥, 음료수","18,900원|2024.03",,,,restaurant
"고기싸롱",명일점,"서울시 강동구 천호동 30-11",37.5482054,127.1433101,02-488-3358,"최상급 육질의 맛좋은 돼지고기(옛날생갈비, 삼겹살, 원조막창, 돼지껍데기), 공깃밥 & 셀프바","[평일점심] 17,500 [저녁및주말] 18,500원|2024.03",,,,restaurant
"돼지먹었소",,"서울시 강동구 천호동 453-6 (강동빌딩 2층)",37.5385706,127.1280422,070-4193-5040,"소고기 (4종) 또는 돼지고기(8종), 공기밥","17,900~27,900원|2023.12",,,,restaurant
